,City,Cloudiness,Country,Date,Humidity,Lat,Lng,Max Temp,Wind Speed
0,broken hill,0,AU,1562281329,81,-31.97,141.45,48.2,11.41
1,vestmannaeyjar,6,IS,1562281330,81,63.44,-20.27,51.32,13.87
2,hobart,20,AU,1562281063,93,-42.88,147.33,41.0,5.82
3,leningradskiy,100,RU,1562281333,98,69.38,178.42,35.93,4.29
4,provideniya,75,RU,1562281334,81,64.42,-173.23,50.0,13.42
5,new norfolk,20,AU,1562281335,93,-42.78,147.06,44.01,5.82
6,avarua,35,CK,1562281187,73,-21.21,-159.78,71.6,19.46
7,punta arenas,75,CL,1562281338,82,-53.16,-70.91,35.6,8.05
8,madison heights,1,US,1562281339,69,42.49,-83.11,88.0,5.3
9,namibe,0,AO,1562281340,75,-15.19,12.15,69.82,5.7
10,jamestown,0,AU,1562281342,66,-33.21,138.6,57.89,14.83
11,castro,90,CL,1562281343,81,-42.48,-73.76,44.6,2.24
12,rikitea,69,PF,1562281344,66,-23.12,-134.97,67.56,22.01
13,busselton,41,AU,1562281345,98,-33.64,115.35,46.99,22.88
14,dhidhdhoo,80,MV,1562281347,78,6.88,73.1,82.64,11.81
15,nago,0,IT,1562281348,73,45.88,10.89,78.8,4.7
16,aswan,0,EG,1562281349,15,24.09,32.9,87.8,13.87
17,mandera,28,ET,1562281350,66,3.94,41.86,76.92,16.46
18,hovd,75,NO,1562281351,87,63.83,10.7,51.01,23.04
19,kamsack,40,CA,1562281353,46,51.56,-101.9,71.6,11.41
20,barrow,42,AR,1562281354,81,-38.31,-60.23,37.66,10.56
21,matamoros,40,US,1562281355,66,25.87,-97.51,93.2,23.04
22,albany,1,US,1562281357,51,42.65,-73.75,91.4,3.36
23,cabo frio,40,BR,1562281358,88,-22.88,-42.02,73.4,4.7
24,sitka,0,US,1562281359,41,37.17,-99.65,95.0,11.99
25,kempsey,57,AU,1562281360,97,-31.08,152.84,59.0,1.01
26,portland,1,US,1562281116,51,43.66,-70.25,84.2,5.82
27,touros,75,BR,1562281363,100,-5.2,-35.46,77.0,2.24
28,ushuaia,75,AR,1562281364,86,-54.81,-68.31,28.4,2.24
29,kapaa,40,US,1562281145,74,22.08,-159.32,82.4,9.17
30,lodja,0,CD,1562281366,45,-3.52,23.6,71.7,1.72
31,gijon,40,ES,1562281368,100,43.54,-5.66,66.99,12.75
32,mataura,80,NZ,1562281096,95,-46.19,168.86,45.0,1.99
33,bethel,40,US,1562281370,72,60.79,-161.76,62.6,5.82
34,talnakh,0,RU,1562281371,87,69.49,88.39,48.2,24.61
35,suntar,100,RU,1562281372,88,62.16,117.65,62.68,3.56
36,faanui,93,PF,1562281374,76,-16.48,-151.75,76.23,30.11
37,cidreira,90,BR,1562281375,64,-30.17,-50.22,48.6,9.37
38,thompson,75,CA,1562281238,67,55.74,-97.86,59.0,9.17
39,nikolskoye,0,RU,1562281378,70,59.7,30.79,48.2,4.47
40,bluff,100,AU,1562281379,75,-23.58,149.07,63.36,23.91
41,tupik,43,RU,1562281380,46,54.43,119.94,54.25,4.32
42,aksu,0,KZ,1562281382,100,52.04,76.93,57.2,4.47
43,leh,84,IN,1562281383,58,34.16,77.58,35.17,4.65
44,atbasar,0,KZ,1562281384,85,51.81,68.36,58.29,6.24
45,karratha,55,AU,1562281386,69,-20.74,116.85,67.81,16.22
46,ballina,49,IE,1562281387,85,54.11,-9.15,57.99,1.99
47,khatanga,90,RU,1562281388,84,71.98,102.47,44.93,8.03
48,yellowknife,20,CA,1562281389,33,62.45,-114.38,73.4,4.7
49,cherskiy,93,RU,1562281391,48,68.75,161.3,54.97,6.22
50,saldanha,37,PT,1562281392,81,41.42,-6.55,64.21,3.36
51,bredasdorp,84,ZA,1562281328,93,-34.53,20.04,55.4,3.36
52,tasiilaq,1,GL,1562281385,66,65.61,-37.64,48.2,10.29
53,tiksi,100,RU,1562281096,86,71.64,128.87,37.75,6.58
54,djambala,100,CG,1562281397,55,-2.55,14.76,76.77,3.65
55,hermanus,59,ZA,1562281398,99,-34.42,19.24,54.0,1.99
56,toora-khem,100,RU,1562281399,76,52.47,96.11,59.69,2.33
57,batsfjord,40,NO,1562281401,87,70.63,29.72,48.2,1.12
58,laguna,75,BZ,1562281402,66,16.17,-88.94,86.0,6.93
59,barra do corda,0,BR,1562281210,84,-5.5,-45.25,74.16,2.06
60,kassala,95,SD,1562281405,44,15.45,36.38,88.87,14.88
61,mar del plata,50,AR,1562281406,72,-46.43,-67.52,32.01,7.43
62,puerto ayora,20,EC,1562281407,57,-0.74,-90.35,78.8,19.46
63,butaritari,27,KI,1562281408,68,3.07,172.79,84.31,6.24
64,hay river,20,CA,1562281410,77,60.82,-115.79,59.0,8.05
65,port elizabeth,100,US,1562281411,69,39.31,-74.98,84.2,5.82
66,ladario,72,PT,1562281412,94,40.7,-7.74,66.99,3.0
67,iqaluit,75,CA,1562281413,81,63.75,-68.52,44.6,16.11
68,ponta do sol,100,BR,1562281415,91,-20.63,-46.0,60.63,3.36
69,katsuura,75,JP,1562281416,94,33.93,134.5,75.0,9.17
70,zeya,1,RU,1562281417,45,53.74,127.27,59.01,7.99
71,pisco,75,PE,1562281418,30,-13.71,-76.2,71.6,6.93
72,ha tinh,85,VN,1562281420,77,18.33,105.9,81.09,3.11
73,itarema,5,BR,1562281421,85,-2.92,-39.92,75.42,6.64
74,faya,0,SA,1562281422,60,18.39,42.45,71.6,3.09
75,anloga,20,GH,1562281424,88,5.79,0.9,78.8,10.29
76,dikson,73,RU,1562281425,83,73.51,80.55,37.12,14.18
77,knysna,100,ZA,1562281426,87,-34.04,23.05,53.6,10.29
78,labuhan,1,ID,1562281428,82,-2.54,115.51,75.82,0.6
79,geraldton,75,CA,1562281429,94,49.72,-86.95,71.6,2.24
80,komsomolskiy,29,RU,1562281430,67,67.55,63.78,69.07,4.14
81,coolum beach,100,AU,1562281432,92,-26.53,153.09,62.01,11.34
82,port hedland,90,AU,1562281433,88,-20.31,118.58,62.6,3.85
83,itoman,75,JP,1562281434,94,26.12,127.67,82.4,13.87
84,upernavik,0,GL,1562281435,72,72.79,-56.15,42.81,10.4
85,port-gentil,90,GA,1562281437,94,-0.72,8.78,73.4,9.17
86,cabo san lucas,5,MX,1562281418,43,22.89,-109.91,96.01,6.93
87,hualmay,9,PE,1562281439,85,-11.1,-77.61,62.43,13.15
88,zarate,100,MX,1562281441,74,18.92,-101.44,77.4,2.86
89,vaini,100,IN,1562281442,88,15.34,74.49,77.55,8.72
90,rio grande,0,BR,1562281443,65,-32.03,-52.1,46.4,4.7
91,kralendijk,40,BQ,1562281445,70,12.15,-68.27,84.2,20.8
92,marsh harbour,100,BS,1562281446,73,26.54,-77.06,84.75,15.28
93,poronaysk,100,RU,1562281447,90,49.22,143.1,52.44,7.07
94,goundam,22,ML,1562281448,25,16.42,-3.66,99.09,8.21
95,altay,68,CN,1562281450,76,47.83,88.13,54.49,2.28
96,guerrero negro,0,MX,1562281451,83,27.97,-114.04,65.85,17.47
97,omsukchan,0,RU,1562281452,36,62.53,155.8,65.99,12.46
98,chuy,7,UY,1562281453,73,-33.69,-53.46,43.8,17.6
99,vanavara,0,RU,1562281455,42,60.35,102.28,68.91,8.21
100,arraial do cabo,40,BR,1562281456,88,-22.97,-42.02,69.8,4.7
101,pochutla,75,MX,1562281457,62,15.74,-96.47,89.6,6.93
102,mogzon,0,RU,1562281459,41,51.74,111.97,64.6,1.23
103,port alfred,71,ZA,1562281460,73,-33.59,26.89,61.0,5.99
104,vestmanna,83,FO,1562281461,93,62.16,-7.17,46.4,10.29
105,tsiroanomandidy,0,MG,1562281462,76,-18.77,46.05,57.75,1.79
106,chara,20,GR,1562281463,50,39.42,22.43,77.0,0.34
107,bilma,30,NE,1562281465,24,18.69,12.92,93.42,2.26
108,sao filipe,34,CV,1562281466,86,14.9,-24.5,73.51,17.85
109,el alto,0,BO,1562281467,7,-16.5,-68.19,57.2,4.7
110,kefalos,0,GR,1562281469,94,36.75,26.96,73.4,16.49
111,okha,97,RU,1562281470,84,53.59,142.95,54.72,17.45
112,hilo,90,US,1562281471,58,19.71,-155.08,84.0,8.05
113,rezekne,83,LV,1562281472,88,56.5,27.32,48.12,12.41
114,nisia floresta,20,BR,1562281474,88,-6.09,-35.21,77.0,4.7
115,nizhnyaya tavda,56,RU,1562281475,97,57.67,66.17,54.49,4.72
116,adrar,6,DZ,1562281476,14,27.87,-0.29,102.2,11.41
117,ribeira grande,20,PT,1562281347,77,38.52,-28.7,66.2,9.17
118,santa fe,19,AR,1562281478,56,-31.62,-60.7,52.0,7.0
119,tombouctou,10,ML,1562281480,27,16.77,-3.01,96.18,8.86
120,muros,75,ES,1562281481,88,42.77,-9.06,69.01,6.49
121,lorengau,91,PG,1562281482,76,-2.02,147.27,81.51,1.12
122,cape town,75,ZA,1562281483,100,-33.93,18.42,57.0,4.7
123,oxbow,90,CA,1562281485,46,49.23,-102.17,71.6,6.93
124,palembang,20,ID,1562281486,94,-2.99,104.76,78.8,4.7
125,hithadhoo,73,MV,1562281328,80,-0.6,73.08,83.2,12.5
126,smolenka,100,PL,1562281489,93,54.15,22.76,53.7,18.34
127,khandyga,76,RU,1562281490,66,62.65,135.58,60.01,2.42
128,areni,20,AM,1562281491,31,39.72,45.19,77.0,11.41
129,atuona,32,PF,1562281493,75,-9.8,-139.03,80.28,10.0
130,xunchang,100,CN,1562281494,91,28.45,104.71,70.11,0.31
131,walvis bay,0,NA,1562281495,77,-22.95,14.51,66.2,2.24
132,ilulissat,75,GL,1562281496,67,69.22,-51.1,55.4,3.36
133,iberia,36,PE,1562281498,67,-11.41,-69.49,77.82,2.08
134,tezu,95,IN,1562281499,92,27.93,96.16,75.12,0.85
135,ranong,100,TH,1562281501,78,9.96,98.62,82.89,12.68
136,qasigiannguit,75,GL,1562281502,70,68.82,-51.19,55.4,3.36
137,misratah,0,LY,1562281503,68,32.38,15.09,78.12,6.04
138,nanortalik,0,GL,1562281505,74,60.14,-45.24,42.81,5.48
139,farafangana,58,MG,1562281326,79,-22.82,47.83,63.72,2.19
140,bathsheba,75,BB,1562281507,88,13.22,-59.52,80.6,20.8
141,carnarvon,36,ZA,1562281210,49,-30.97,22.13,42.48,12.39
142,fukue,75,JP,1562281509,88,35.03,136.69,78.01,1.12
143,babol,0,IR,1562281511,83,36.55,52.68,71.6,2.24
144,georgetown,40,GY,1562281218,79,6.8,-58.16,84.2,9.17
145,tuktoyaktuk,90,CA,1562281337,87,69.44,-133.03,50.0,12.75
146,half moon bay,90,US,1562281514,87,37.46,-122.43,80.01,8.05
147,narsaq,75,GL,1562281516,38,60.91,-46.05,60.8,5.82
148,hofn,75,IS,1562281517,79,64.25,-15.21,38.47,6.42
149,kuldiga,75,LV,1562281518,93,56.97,21.96,57.2,19.46
150,bonavista,100,CA,1562281520,80,48.65,-53.11,48.99,1.01
151,nome,40,US,1562281521,84,30.04,-94.42,89.6,9.17
152,comodoro rivadavia,0,AR,1562281522,69,-45.87,-67.48,35.6,8.05
153,mocuba,9,MZ,1562281523,96,-16.84,36.99,58.75,1.45
154,norman wells,90,CA,1562281525,56,65.28,-126.83,68.0,10.29
155,kavaratti,100,IN,1562281526,79,10.57,72.64,83.05,20.36
156,fort nelson,75,CA,1562281527,37,58.81,-122.69,71.6,6.93
157,alyangula,0,AU,1562281528,93,-13.85,136.42,59.0,3.36
158,codrington,75,AU,1562281530,93,-28.95,153.24,60.8,1.12
159,lixourion,0,GR,1562281531,31,38.2,20.43,82.0,4.0
160,crossville,1,US,1562281532,78,35.95,-85.03,82.4,6.93
161,matay,0,EG,1562281533,45,28.42,30.79,74.97,13.6
162,gornopravdinsk,39,RU,1562281535,91,60.06,69.92,59.53,2.8
163,lakes entrance,5,AU,1562281536,76,-37.88,147.99,48.48,2.8
164,kaitangata,92,NZ,1562281352,74,-46.28,169.85,46.99,1.99
165,evensk,89,RU,1562281538,76,61.92,159.24,53.28,4.81
166,todos santos,5,MX,1562281540,33,23.45,-110.23,96.01,16.11
167,deputatskiy,92,RU,1562281541,69,69.3,139.9,48.94,9.42
168,makakilo city,75,US,1562281542,66,21.35,-158.09,87.01,12.75
169,marseille,0,FR,1562281544,78,43.3,5.37,80.01,2.24
170,muriwai beach,78,NZ,1562281545,81,-36.82,174.45,55.0,11.41
171,bilibino,97,RU,1562281547,61,68.06,166.44,58.34,8.01
172,smithers,40,CA,1562281290,82,54.78,-127.17,62.6,6.93
173,miguel auza,88,MX,1562281549,25,24.29,-103.45,81.38,4.09
174,sijunjung,78,ID,1562281550,98,-0.69,100.95,69.01,2.33
175,pevek,100,RU,1562281552,87,69.7,170.27,36.43,11.12
176,caravelas,0,BR,1562281553,91,-17.73,-39.27,75.58,11.16
177,ouesso,100,CG,1562281557,97,1.61,16.05,70.99,1.74
178,wajir,71,KE,1562281559,67,1.75,40.07,74.81,16.15
179,qaanaaq,100,GL,1562281560,70,77.48,-69.36,40.95,3.0
180,constitucion,75,MX,1562281561,19,23.99,-104.67,80.6,8.05
181,roald,75,NO,1562281562,87,62.58,6.12,48.2,2.24
182,labuan,75,BN,1562281510,94,5.28,115.24,77.0,1.12
183,saint anthony,1,US,1562281367,25,43.97,-111.68,75.2,11.41
184,rawson,0,AR,1562281468,58,-43.3,-65.11,32.04,5.95
185,ndioum,43,SN,1562281567,63,16.51,-14.65,77.6,17.16
186,buala,9,SB,1562281569,74,-8.15,159.59,83.09,9.84
187,beringovskiy,18,RU,1562281570,45,63.05,179.32,67.03,5.37
188,luderitz,0,NA,1562281571,76,-26.65,15.16,57.2,13.87
189,wasilla,1,US,1562281573,37,61.58,-149.44,87.01,5.82
190,zlobin,0,HR,1562281574,53,45.29,14.65,75.2,6.93
191,pandan,34,PH,1562281575,71,11.72,122.09,82.75,3.87
192,basi,100,CN,1562281577,87,23.75,109.1,79.2,4.32
193,saskylakh,99,RU,1562281383,82,71.97,114.09,46.42,15.82
194,hami,0,CN,1562281579,24,42.84,93.51,81.38,20.45
195,omboue,90,GA,1562281580,83,-1.57,9.26,73.24,10.63
196,yulara,0,AU,1562281582,64,-25.24,130.99,39.2,5.82
197,avera,1,US,1562281583,70,33.19,-82.53,90.0,4.7
198,kavieng,100,PG,1562281584,75,-2.57,150.8,82.19,10.85
199,barbosa ferraz,82,BR,1562281586,77,-24.03,-52.01,55.39,10.51
200,riviere-au-renard,20,CA,1562281587,68,49.0,-64.4,69.8,6.93
201,wanning,28,AT,1562281588,59,48.64,13.53,62.6,4.7
202,mandali,0,IQ,1562281590,15,33.75,45.55,83.92,6.06
203,airai,0,TL,1562281591,55,-8.93,125.41,73.71,2.1
204,vao,65,EE,1562281592,89,59.1,26.19,46.73,10.83
205,sovetskiy,100,RU,1562281593,81,56.76,48.47,51.07,12.73
206,naze,100,NG,1562281361,98,5.43,7.07,73.24,4.5
207,grand gaube,40,MU,1562281596,73,-20.01,57.66,71.6,3.36
208,berlevag,40,NO,1562281597,87,70.86,29.09,46.4,3.36
209,nata,0,BW,1562281598,47,-20.21,26.19,54.9,8.12
210,severo-kurilsk,100,RU,1562281600,96,50.68,156.12,42.82,8.99
211,praia da vitoria,75,PT,1562281601,100,38.73,-27.07,68.0,11.77
212,brecht,0,BE,1562281602,67,51.35,4.64,64.0,3.36
213,anadyr,0,RU,1562281604,59,64.73,177.51,62.6,17.9
214,salalah,75,OM,1562281605,88,17.01,54.1,82.4,2.24
215,chokurdakh,89,RU,1562281606,58,70.62,147.9,53.66,10.29
216,qandala,0,SO,1562281608,51,11.47,49.87,92.0,18.54
217,bambous virieux,40,MU,1562281610,73,-20.34,57.76,71.6,3.36
218,north bend,1,US,1562281611,68,43.41,-124.22,71.01,17.22
219,san quintin,59,PH,1562281613,79,17.54,120.52,81.16,2.93
220,saint-philippe,1,CA,1562281614,43,45.36,-73.48,90.0,5.26
221,emba,0,CY,1562281615,78,34.81,32.42,77.0,6.93
222,tongzi,100,CN,1562281616,91,28.78,105.09,71.19,3.6
223,pacific grove,1,US,1562281618,56,36.62,-121.92,86.0,20.8
224,barcelona,0,ES,1562281320,88,41.38,2.18,78.01,2.24
225,port hardy,90,CA,1562281620,82,50.7,-127.42,57.2,8.05
226,sao jose da coroa grande,0,BR,1562281621,94,-8.9,-35.15,72.49,2.37
227,naifaru,18,MV,1562281623,77,5.44,73.37,83.07,10.09
228,bago,90,MM,1562281624,94,17.34,96.48,78.8,5.82
229,kodiak,40,US,1562281380,39,39.95,-94.76,86.0,5.82
230,tyumentsevo,46,RU,1562281626,88,53.32,81.5,60.5,9.37
231,acapulco,75,MX,1562281628,74,16.86,-99.88,87.8,6.93
232,east london,35,ZA,1562281363,81,-33.02,27.91,51.82,8.16
233,atar,5,MR,1562281399,12,20.52,-13.05,98.23,20.6
234,nyurba,93,RU,1562281631,90,63.29,118.35,59.58,1.74
235,kontagora,99,NG,1562281633,92,10.4,5.47,74.86,5.03
236,alihe,100,CN,1562281634,96,50.57,123.73,50.62,3.42
237,kongolo,0,CD,1562281635,42,-5.39,27.0,68.31,4.92
238,longyearbyen,75,NO,1562281636,61,78.22,15.63,48.2,18.34
239,zhigansk,100,RU,1562281638,65,66.77,123.37,53.61,6.71
240,stettler,100,CA,1562281639,81,52.32,-112.71,55.0,5.99
241,panguna,40,PG,1562281640,79,-6.32,155.48,81.65,9.91
242,hasaki,75,JP,1562281642,88,35.73,140.83,70.0,6.93
243,olinda,40,AU,1562281643,100,-37.84,145.39,48.0,2.24
244,keller,75,US,1562281644,55,32.93,-97.23,93.99,14.99
245,devils lake,40,US,1562281646,50,48.11,-98.87,75.2,5.82
246,verkh-usugli,1,RU,1562281647,41,52.7,115.17,58.75,5.57
247,elizabeth city,40,US,1562281397,70,36.3,-76.22,89.6,11.41
248,souillac,0,FR,1562281364,57,45.6,-0.6,81.0,5.82
249,storsteinnes,100,NO,1562281651,81,69.24,19.23,48.2,25.28
250,monchegorsk,100,RU,1562281652,86,67.94,32.93,52.13,7.23
251,strezhevoy,20,RU,1562281653,100,60.73,77.6,64.4,4.47
252,vardo,90,US,1562281654,83,39.62,-77.74,82.99,5.82
253,henties bay,0,NA,1562281655,90,-22.12,14.28,52.0,13.69
254,hobyo,99,SO,1562281657,62,5.35,48.53,79.09,20.15
255,victoria,75,BN,1562281510,94,5.28,115.24,77.0,1.12
256,ola,100,RU,1562281659,89,59.58,151.3,46.82,7.0
257,alice springs,0,AU,1562281660,65,-23.7,133.88,41.0,4.7
258,vanimo,83,PG,1562281661,77,-2.67,141.3,80.82,7.14
259,port blair,100,IN,1562281391,81,11.67,92.75,83.65,21.3
260,lodi,14,IT,1562281664,73,45.31,9.5,81.0,1.12
261,malakwal,0,PK,1562281665,32,32.55,73.21,93.62,10.36
262,wick,100,GB,1562281666,87,51.45,-2.43,66.2,5.82
263,biltine,25,TD,1562281668,49,14.53,20.93,85.84,12.62
264,alta floresta,20,BR,1562281669,61,-9.87,-56.08,82.4,2.06
265,terra nova,40,BR,1562281670,88,-12.41,-38.62,78.8,11.41
266,lata,82,IN,1562281671,89,30.78,78.62,46.37,2.93
267,fairlie,75,US,1562281673,62,33.31,-95.96,91.0,9.17
268,tam ky,20,VN,1562281674,69,15.57,108.48,82.4,3.11
269,edd,83,ER,1562281675,28,13.93,41.69,91.37,3.47
270,valenca,17,BR,1562281626,99,-13.37,-39.07,69.48,1.3
271,port macquarie,75,AU,1562281678,100,-31.43,152.91,59.0,4.7
272,monrovia,75,LR,1562281679,94,6.33,-10.8,77.0,9.73
273,lebu,40,ET,1562281681,87,8.96,38.73,57.2,4.7
274,calvillo,75,MX,1562281682,31,21.85,-102.72,78.8,12.75
275,jinchang,46,CN,1562281683,19,38.52,102.19,69.5,6.15
276,halifax,40,CA,1562281599,54,44.65,-63.58,80.6,9.17
277,gambela,100,ET,1562281686,94,8.25,34.59,66.93,4.27
278,waingapu,5,ID,1562281687,80,-9.65,120.26,71.1,10.11
279,narsipatnam,98,IN,1562281688,83,17.67,82.61,79.0,10.83
280,umm kaddadah,29,SD,1562281689,36,13.6,26.69,89.77,12.8
281,bonthe,100,SL,1562281690,90,7.53,-12.5,76.86,5.68
282,syracuse,75,US,1562281612,52,43.05,-76.15,89.6,6.08
283,college,90,US,1562281694,59,64.86,-147.8,70.0,8.05
284,merrill,1,US,1562281696,17,42.03,-121.6,80.01,5.82
285,torbay,90,CA,1562281662,100,47.66,-52.73,57.0,3.36
286,ankpa,93,NG,1562281698,98,7.37,7.63,71.14,5.99
287,freeport,75,BS,1562281642,66,26.54,-78.7,89.6,12.75
288,palmer,0,AU,1562281700,87,-34.85,139.16,60.01,16.11
289,fairbanks,90,US,1562281502,59,64.84,-147.72,68.0,8.05
290,onalaska,40,US,1562281703,62,43.88,-91.23,89.6,4.7
291,alice town,95,BS,1562281704,73,25.72,-79.3,84.69,11.45
292,komsomolets,0,RU,1562281705,91,52.77,41.29,48.57,8.39
293,kommunisticheskiy,45,RU,1562281706,81,61.68,64.48,60.41,5.35
294,corning,90,US,1562281708,94,42.14,-77.05,84.2,9.17
295,samarai,87,PG,1562281709,76,-10.62,150.67,77.11,5.75
296,lokosovo,98,RU,1562281710,89,61.13,74.84,64.75,4.83
297,san lorenzo,0,HN,1562281712,41,13.43,-87.45,93.2,4.7
298,esperance,90,AU,1562281713,100,-33.86,121.89,50.0,14.99
299,chino valley,1,US,1562281714,10,34.76,-112.45,95.0,14.99
300,saint-joseph,0,FR,1562281716,83,43.56,6.97,78.8,3.36
301,fortuna,75,US,1562281717,77,40.6,-124.16,66.99,16.11
302,grindavik,40,IS,1562281718,81,63.84,-22.43,53.6,13.87
303,kemin,0,KG,1562281719,51,42.79,75.7,55.87,4.94
304,easton,90,US,1562281721,94,38.77,-76.08,82.4,7.2
305,alofi,75,NU,1562281722,83,-19.06,-169.92,75.2,20.8
306,shache,0,CN,1562281724,96,38.42,77.24,75.99,11.1
307,borsad,99,IN,1562281725,75,22.41,72.91,82.57,9.19
308,meulaboh,68,ID,1562281727,81,4.14,96.13,81.85,8.63
309,ugento,5,IT,1562281599,88,39.93,18.16,80.6,9.17
310,date,75,JP,1562281729,100,42.53,140.93,68.0,9.17
311,shwebo,100,MM,1562281731,70,22.57,95.7,81.92,12.33
312,quatre cocos,40,MU,1562281732,73,-20.21,57.76,71.6,3.36
313,gumdag,0,TM,1562281733,43,39.2,54.59,76.56,6.29
314,bugene,29,TZ,1562281735,65,-1.59,31.14,63.79,1.52
315,jining,0,CN,1562281736,56,35.41,116.58,82.0,11.68
316,noumea,31,NC,1562281737,69,-22.28,166.46,73.4,3.36
317,taoudenni,4,ML,1562281739,18,22.68,-3.98,97.96,8.32
318,uvalde,40,US,1562281740,49,29.21,-99.79,96.8,14.99
319,luganville,90,VU,1562281742,94,-15.51,167.18,80.6,5.82
320,kedrovyy,0,RU,1562281743,93,56.17,91.82,62.6,2.24
321,mackay,90,CA,1562281745,76,53.65,-115.58,59.0,13.87
322,ringsted,100,DK,1562281746,100,55.45,11.8,55.99,9.17
323,trairi,1,BR,1562281450,93,-3.28,-39.27,70.72,4.05
324,shitanjing,0,CN,1562281505,39,39.23,106.34,71.01,5.99
325,griffith,0,AU,1562281750,87,-34.29,146.06,53.01,17.22
326,miri,100,NG,1562281752,84,10.31,9.75,72.61,3.76
327,ulladulla,90,AU,1562281754,100,-35.36,150.48,55.0,9.17
328,lagoa,0,PT,1562281755,82,37.14,-8.45,66.0,12.75
329,erenhot,100,CN,1562281757,61,43.65,111.97,63.83,26.13
330,mahebourg,40,MU,1562281758,73,-20.41,57.7,71.6,3.36
331,marathon,40,CA,1562281760,68,48.72,-86.38,68.92,5.57
332,aklavik,90,CA,1562281761,87,68.22,-135.01,53.6,10.29
333,kolodenka,29,UA,1562281763,88,50.58,26.32,50.22,7.14
334,bayburt,5,TR,1562281764,94,40.26,40.22,45.74,7.36
335,sur,26,OM,1562281518,62,22.57,59.53,84.69,7.56
336,marau,17,BR,1562281767,81,-28.45,-52.2,39.03,3.69
337,hit,0,IQ,1562281768,17,33.64,42.83,88.35,12.71
338,lompoc,1,US,1562281770,77,34.64,-120.46,75.99,14.99
339,beloha,13,MG,1562281771,97,-25.17,45.06,61.56,4.97
340,troitskoye,62,RU,1562281772,79,52.98,84.68,61.36,5.68
341,clyde river,75,CA,1562281774,93,70.47,-68.59,37.4,6.93
342,juneau,40,US,1562281503,56,58.3,-134.42,75.2,13.87
343,tanete,0,ID,1562281776,74,-3.94,119.78,78.79,16.33
344,camrose,90,CA,1562281777,52,53.01,-112.84,66.0,4.7
345,kirakira,1,SB,1562281763,72,-10.46,161.92,83.18,4.5
346,neijiang,91,CN,1562281780,90,29.59,105.06,70.76,4.29
347,basco,20,US,1562281781,78,40.33,-91.2,87.8,12.75
348,kefamenanu,0,ID,1562281782,52,-9.45,124.48,73.69,0.31
349,darhan,3,MN,1562281783,57,49.49,105.92,61.76,3.27
350,taltal,75,CL,1562281785,92,-25.41,-70.49,49.29,0.4
351,mount gambier,0,AU,1562281718,100,-37.83,140.78,41.0,6.93
352,borova,0,UA,1562281788,66,50.18,30.1,57.0,4.47
353,biloela,100,AU,1562281789,74,-24.4,150.51,61.99,25.32
354,bhag,0,PK,1562281790,30,29.04,67.82,99.94,12.21
355,anamur,0,TR,1562281792,100,36.08,32.84,69.8,1.12
356,ulety,0,RU,1562281793,49,51.36,112.48,61.63,2.35
357,gizo,0,IL,1562281794,73,31.8,34.94,77.0,5.82
358,seymchan,99,RU,1562281796,46,62.93,152.39,66.91,14.5
359,vilyuysk,100,RU,1562281797,89,63.75,121.63,52.78,1.48
360,vila franca do campo,75,PT,1562281798,93,37.72,-25.43,64.4,3.36
361,brownsville,40,US,1562281552,66,25.91,-97.49,93.2,23.04
362,vung tau,100,VN,1562281801,86,10.35,107.08,78.84,3.58
363,sabha,0,LY,1562281802,17,27.03,14.43,87.59,9.48
364,darnah,0,LY,1562281623,87,32.77,22.64,76.02,20.78
365,necochea,16,AR,1562281804,71,-38.55,-58.74,44.01,14.0
366,tuatapere,86,NZ,1562281805,95,-46.13,167.69,45.0,1.99
367,praia,0,BR,1562281807,52,-20.25,-43.81,71.6,2.73
368,sumbe,14,AO,1562281808,91,-11.2,13.84,70.53,11.81
369,buraydah,0,SA,1562281756,21,26.33,43.97,91.4,6.93
370,saint george,20,GR,1562281765,50,39.45,22.34,77.0,0.34
371,plettenberg bay,100,ZA,1562281811,92,-34.05,23.37,54.58,13.13
372,escanaba,1,US,1562281813,78,45.75,-87.06,82.0,8.05
373,letychiv,16,UA,1562281814,86,49.38,27.62,50.71,4.43
374,normandin,40,CA,1562281815,58,48.84,-72.53,82.4,2.24
375,preobrazheniye,94,RU,1562281817,80,42.9,133.91,62.8,3.71
376,north platte,90,US,1562281818,65,41.12,-100.77,81.0,4.7
377,paamiut,48,GL,1562281819,77,61.99,-49.67,44.75,1.97
378,vieste,5,IT,1562281821,94,41.88,16.18,75.2,6.93
379,skjervoy,100,NO,1562281822,90,70.03,20.97,46.03,2.8
380,isla mujeres,40,MX,1562281760,66,21.23,-86.73,87.8,8.05
381,calvinia,34,ZA,1562281824,97,-31.47,19.78,43.24,1.1
382,dunedin,99,NZ,1562281731,68,-45.87,170.5,46.99,21.0
383,carutapera,40,BR,1562281827,86,-1.2,-46.02,77.78,5.99
384,akdepe,0,TM,1562281828,53,42.05,59.39,80.6,4.7
385,shahreza,4,IR,1562281829,16,32.01,51.87,71.3,4.18
386,finschhafen,83,PG,1562281830,82,-6.6,147.85,70.56,3.06
387,biak,100,ID,1562281832,95,-0.91,122.88,64.77,4.05
388,le port,48,FR,1562281833,39,42.87,1.37,75.99,6.24
389,namatanai,99,PG,1562281834,83,-3.66,152.44,79.62,12.91
390,anuradhapura,70,LK,1562281835,83,8.34,80.41,79.65,9.6
391,klaksvik,93,FO,1562281837,93,62.23,-6.59,46.4,10.29
392,puerto carreno,20,CO,1562281694,55,6.19,-67.49,89.6,3.36
393,kapit,20,MY,1562281839,78,2.02,112.94,74.56,1.63
394,san cristobal,11,HN,1562281840,47,14.68,-86.92,75.15,7.16
395,wanaka,0,NZ,1562281842,83,-44.7,169.14,30.99,2.89
396,tessalit,7,ML,1562281843,20,20.2,1.01,87.12,2.01
397,impfondo,54,CD,1562281844,96,1.62,18.06,71.62,2.86
398,port shepstone,0,ZA,1562281845,26,-30.74,30.45,58.56,8.59
399,garden city,1,US,1562281847,22,43.62,-116.24,84.0,6.93
400,rio gallegos,0,AR,1562281848,59,-51.62,-69.22,32.0,3.36
401,carauari,83,BR,1562281849,95,-4.88,-66.9,74.54,2.66
402,sokolo,75,ML,1562281850,32,14.74,-6.12,94.27,18.28
403,khiv,1,RU,1562281852,72,41.75,47.93,50.2,7.23
404,ketchikan,40,US,1562281853,64,55.34,-131.65,71.6,17.22
405,kyzyl-suu,0,KG,1562281854,59,42.34,78.0,63.15,8.9
406,obera,0,AR,1562281855,89,-27.49,-55.12,42.43,3.18
407,lisala,20,CD,1562281856,97,2.15,21.52,70.98,1.59
408,rorvik,100,NO,1562281858,95,64.86,11.24,48.99,17.45
409,jalu,0,LY,1562281859,49,29.03,21.55,77.67,12.64
410,tilichiki,93,RU,1562281860,54,60.47,166.1,65.09,5.48
411,aloleng,2,PH,1562281862,75,16.13,119.78,84.15,9.37
412,tsaratanana,12,MG,1562281863,90,-16.8,47.65,57.15,8.93
413,mweka,0,CD,1562281864,41,-4.85,21.56,67.5,1.25
414,glens falls,1,US,1562281829,51,43.31,-73.64,89.6,3.36
415,punta cardon,0,VE,1562281866,82,11.61,-70.22,79.27,34.4
416,arlit,9,NE,1562281868,36,18.74,7.39,91.6,18.48
417,isangel,20,VU,1562281869,74,-19.55,169.27,78.8,12.33
418,whitehorse,75,CA,1562281605,43,60.72,-135.06,73.4,8.05
419,zhaotong,100,CN,1562281748,87,27.34,103.71,59.64,0.63
420,bandarbeyla,61,SO,1562281778,55,9.49,50.81,80.34,23.44
421,bloomington,40,US,1562281425,66,40.47,-88.99,89.01,3.36
422,hamilton,20,CA,1562281662,74,43.26,-79.87,86.0,9.17
423,batagay-alyta,98,RU,1562281876,60,67.8,130.41,47.22,7.54
424,saint-pierre,0,FR,1562281877,63,48.95,4.24,64.4,8.05
425,tondano,40,ID,1562281878,100,1.3,124.91,73.4,1.12
426,albanel,40,CA,1562281880,58,48.88,-72.44,82.4,2.24
427,wailuku,40,US,1562281881,52,20.89,-156.51,91.4,11.41
428,show low,1,US,1562281797,7,34.25,-110.03,90.0,19.46
429,floriano,23,BR,1562281602,57,-6.77,-43.02,80.37,1.74
430,kapiri mposhi,0,ZM,1562281885,80,-13.97,28.68,52.83,5.73
431,yarada,100,IN,1562281886,77,17.65,83.27,82.57,21.65
432,gondanglegi,22,ID,1562281888,89,-7.75,112.01,73.62,6.49
433,gat,20,SN,1562281889,78,14.69,-16.54,75.2,9.17
434,anshun,100,CN,1562281890,90,26.25,105.93,64.01,0.94
435,bell ville,13,AR,1562281891,72,-32.63,-62.69,42.28,7.65
436,egvekinot,86,RU,1562281734,74,66.32,-179.17,51.54,15.21
437,aripuana,43,BR,1562281894,83,-9.17,-60.63,73.73,2.21
438,tefe,75,BR,1562281895,88,-3.35,-64.71,80.6,4.7
439,terra santa,43,BR,1562281865,77,-2.1,-56.49,78.28,2.48
440,vila velha,20,BR,1562281898,78,-3.71,-38.6,86.0,10.29
441,methven,72,NZ,1562281899,70,-43.63,171.65,45.0,1.01
442,eston,90,CA,1562281900,42,51.15,-108.75,68.0,14.99
443,hlobyne,57,UA,1562281901,84,49.39,33.25,54.56,5.97
444,grand-santi,99,GF,1562281699,99,4.27,-54.38,73.53,1.63
445,bertinoro,0,IT,1562281904,83,44.15,12.13,73.99,4.7
446,virginia beach,75,US,1562281607,79,36.85,-75.98,89.6,17.09
447,belem de sao francisco,5,BR,1562281629,58,-8.75,-38.97,79.2,20.85
448,surt,0,LY,1562281910,72,31.21,16.59,77.78,10.92
449,ahipara,14,NZ,1562281912,72,-35.17,173.16,56.34,19.91
450,renqiu,61,CN,1562281913,34,38.71,116.1,87.86,4.45
451,kokoda,73,PG,1562281914,85,-8.88,147.74,67.95,3.44
452,coro,1,VE,1562281915,79,11.41,-69.67,79.67,27.94
453,galle,100,GN,1562281917,97,10.08,-12.83,72.56,3.62
454,arona,0,IT,1562281918,73,45.76,8.56,81.0,5.82
455,kruisfontein,100,ZA,1562281706,94,-34.0,24.73,54.4,25.64
456,port hawkesbury,1,CA,1562281920,68,45.62,-61.36,71.6,6.93
457,coos bay,1,US,1562281921,68,43.37,-124.22,71.01,18.34
458,vikhorevka,0,RU,1562281923,67,56.12,101.17,59.0,4.47
459,senanga,0,ZM,1562281924,56,-16.1,23.3,55.62,5.48
460,mahbubabad,100,IN,1562281925,87,17.62,80.02,77.62,12.06
461,chernyakhovsk,100,RU,1562281926,94,54.64,21.81,55.59,15.26
462,awbari,0,LY,1562281927,12,26.59,12.77,87.88,9.24
463,palu,70,ID,1562281929,80,-0.9,119.87,77.91,2.26
464,moose factory,75,CA,1562281930,83,51.26,-80.61,71.6,8.05
465,brinkovskaya,0,RU,1562281931,65,46.03,38.59,67.14,6.42
466,waitati,99,NZ,1562281932,69,-45.75,170.57,46.99,18.99
467,conde,16,BR,1562281934,98,-11.81,-37.61,71.35,4.07
468,ancud,90,CL,1562281935,81,-41.87,-73.83,44.6,2.24
469,ellensburg,1,US,1562281936,34,47.0,-120.55,88.0,17.22
470,sinnamary,0,GF,1562281937,81,5.38,-52.96,81.02,13.62
471,puerto baquerizo moreno,40,EC,1562281938,78,-0.9,-89.6,75.2,13.87
472,suhbaatar,1,MN,1562281940,52,50.23,106.21,62.12,4.09
473,serebryanyy bor,42,RU,1562281941,52,56.8,124.8,54.02,5.97
474,xam nua,100,LA,1562281942,98,20.42,104.04,67.77,2.13
475,cabedelo,40,BR,1562281944,94,-6.97,-34.84,77.0,3.36
476,erzin,0,TR,1562281945,88,36.95,36.2,79.0,2.24
477,sao miguel do araguaia,0,BR,1562281946,42,-13.28,-50.16,75.39,1.7
478,yeppoon,40,AU,1562281947,77,-23.13,150.74,64.4,14.99
479,skibbereen,0,IE,1562281856,76,51.55,-9.27,57.2,12.75
480,neuquen,20,AR,1562281920,75,-38.95,-68.06,44.6,4.7
481,savannah bight,66,HN,1562281951,81,16.45,-85.85,81.94,17.29
482,ossora,51,RU,1562281952,64,59.24,163.07,64.53,6.06
483,sao sebastiao,100,BR,1562281953,90,-3.15,-58.36,76.23,1.39
484,khasan,100,RU,1562281954,90,42.43,130.64,62.01,4.32
485,kolpashevo,67,RU,1562281956,91,58.31,82.9,63.63,7.85
486,cortez,1,US,1562281957,12,37.35,-108.58,87.8,14.99
487,isla vista,1,US,1562281958,46,34.41,-119.86,78.01,17.22
488,boa vista,0,BR,1562281791,74,2.82,-60.67,82.4,3.36
489,sapa,75,PH,1562281960,83,14.32,120.76,82.99,2.24
490,natal,20,BR,1562281771,88,-5.81,-35.21,77.0,4.7
491,abha,0,SA,1562281963,60,18.22,42.5,71.6,3.58
492,beauchamps,0,FR,1562281964,72,48.83,-1.36,63.0,8.05
493,polunochnoye,57,RU,1562281965,94,60.87,60.43,51.73,3.24
494,tazovskiy,100,RU,1562281966,68,67.47,78.7,59.85,12.06
495,murdochville,52,CA,1562281670,66,48.96,-65.49,64.78,0.92
496,yaan,100,NG,1562281969,97,7.38,8.57,73.73,7.74
497,coruripe,0,BR,1562281970,96,-10.12,-36.18,71.46,6.06
498,samfya,10,ZM,1562281971,78,-11.37,29.56,53.89,3.85
499,iquitos,40,PE,1562281924,88,-3.75,-73.25,78.8,4.7
500,banff,100,CA,1562281872,93,51.18,-115.57,46.0,1.01
501,montepuez,0,MZ,1562281975,84,-13.13,39.0,63.72,6.29
502,tiznit,0,MA,1562281976,88,29.7,-9.73,66.3,10.85
503,hurricane,1,US,1562281694,8,37.18,-113.29,96.8,12.75
504,turukhansk,15,RU,1562281980,63,65.8,87.96,70.89,7.45
505,poum,0,MK,1562281981,83,41.28,20.71,59.01,1.68
506,steinbach,75,CA,1562281982,36,49.53,-96.69,81.0,3.36
507,perth,40,AU,1562281984,93,-31.95,115.86,51.01,6.93
508,palauig,0,PH,1562281985,72,15.44,119.9,84.42,6.53
509,bahia blanca,84,AR,1562281995,69,-38.72,-62.27,38.2,10.45
510,hambantota,100,LK,1562281997,82,6.12,81.12,82.42,17.58
511,guatire,40,VE,1562281998,78,10.47,-66.54,82.4,6.93
512,vitim,87,RU,1562281999,46,59.44,112.57,66.94,9.24
513,amahai,91,ID,1562282000,94,-3.31,129.0,79.0,1.01
514,mangochi,0,MW,1562282002,82,-14.48,35.26,55.93,6.17
515,pierre,1,US,1562282003,61,44.37,-100.35,80.01,11.92
516,chifeng,96,CN,1562282005,45,42.27,118.96,75.15,15.28
517,gold coast,75,AU,1562282006,88,-28.0,153.41,68.0,18.34
518,flinders,90,AU,1562282007,100,-34.58,150.85,62.01,9.17
519,agropoli,0,IT,1562281853,36,40.35,15.0,79.0,1.03
520,redmond,75,US,1562281827,53,47.67,-122.12,75.0,13.67
521,muisne,75,EC,1562282011,88,0.61,-80.02,78.8,9.17
522,iroquois falls,40,CA,1562282012,31,48.76,-80.69,89.6,10.29
523,belle fourche,75,US,1562282013,100,44.67,-103.85,66.99,13.87
524,petropavlovsk-kamchatskiy,90,RU,1562281715,100,53.05,158.65,50.0,6.71
525,leshukonskoye,72,RU,1562282016,85,64.9,45.76,57.94,0.72
526,miramar,0,CR,1562282017,50,10.09,-84.73,78.8,13.87
527,rapar,75,IN,1562281739,73,23.57,70.65,82.73,19.53
528,kupang,0,ID,1562282019,71,-10.16,123.6,73.89,10.0
529,sabang,31,PH,1562282021,78,13.8,121.11,80.52,1.16
530,madanapalle,100,IN,1562282022,66,13.56,78.5,75.17,17.36
531,melo,0,UY,1562282023,83,-32.37,-54.17,35.59,8.01
